[
  {
    "name": "Hårizont",
    "slug": "/harizont/",
    "time": "12.00",
    "duration": "30 min",
    "price": 350,
    "currency": "kr",
    "address": "Västmannagatan 69",
    "city": "Stockholm",
    "zip": "113 26",
    "phone": "08 - 10 23 56",
    "www": "www.harizont.se",
    "openingHours": "19.00",
    "description": "Lorem ipsum dolor sit amet, vulputate nunc. Auctor viverra. Ridiculus feugiat nunc porttitor volut pat, acu quis torquent iaculis ultricies massa, duis nun quis que amet.",
    "rating": 4,
    "reviews": 18
  },
  {
    "name": "Hårhuset",
    "slug": "/harhuset/",
    "time": "12.00",
    "duration": "10 min",
    "price": 260,
    "currency": "kr",
    "address": "Storgatan 18",
    "city": "Stockholm",
    "zip": "113 28",
    "phone": "08 - 10 23 56",
    "www": "www.harhuset.se",
    "openingHours": "15.00",
    "description": "Lorem ipsum dolor sit amet, vulputate nunc. Auctor viverra. Ridiculus feugiat nunc porttitor volut pat, acu quis torquent iaculis ultricies massa, duis nun quis que amet.",
    "rating": 2,
    "reviews": 67
  },
  {
    "name": "Sax & Kam",
    "slug": "/sax-kam/",
    "time": "12.00",
    "duration": "35 min",
    "price": 480,
    "currency": "kr",
    "address": "Hamngatan 58",
    "city": "Stockholm",
    "zip": "113 26",
    "phone": "08 - 10 23 56",
    "www": "www.sax-kam.se",
    "openingHours": "21.00",
    "description": "Lorem ipsum dolor sit amet, vulputate nunc. Auctor viverra. Ridiculus feugiat nunc porttitor volut pat, acu quis torquent iaculis ultricies massa, duis nun quis que amet.",
    "rating": 3,
    "reviews": 27
  },
  {
    "name": "Hår & Sånt",
    "slug": "/har-sant/",
    "time": "12.00",
    "duration": "40 min",
    "price": 700,
    "currency": "kr",
    "address": "Folkungagatan 8",
    "city": "Stockholm",
    "zip": "115 27",
    "phone": "08 - 10 45 16",
    "www": "www.harochsant.com",
    "openingHours": "17.00",
    "description": "Lorem ipsum dolor sit amet, vulputate nunc. Auctor viverra. Ridiculus feugiat nunc porttitor volut pat, acu quis torquent iaculis ultricies massa, duis nun quis que amet.",
    "rating": 3,
    "reviews": 8
  },
  {
    "name": "Hair Forever",
    "slug": "/harizont4/",
    "time": "12.15",
    "duration": "45 min",
    "price": 600,
    "currency": "kr",
    "address": "Dalagatan 14",
    "city": "Stockholm",
    "zip": "126 10",
    "phone": "08 - 10 23 56",
    "www": "www.hairforever.com",
    "openingHours": "19.30",
    "description": "Lorem ipsum dolor sit amet, vulputate nunc. Auctor viverra. Ridiculus feugiat nunc porttitor volut pat, acu quis torquent iaculis ultricies massa, duis nun quis que amet.",
    "rating": 3,
    "reviews": 37
  },
  {
    "name": "Bara hår",
    "slug": "/barahar/",
    "time": "12.00",
    "duration": "5 min",
    "price": 120,
    "currency": "kr",
    "address": "Långgatan 3",
    "city": "Stockholm",
    "zip": "131 63",
    "phone": "08 - 30 23 68",
    "www": "www.bara-har.se",
    "openingHours": "12.00",
    "description": "Lorem ipsum dolor sit amet, vulputate nunc. Auctor viverra. Ridiculus feugiat nunc porttitor volut pat, acu quis torquent iaculis ultricies massa, duis nun quis que amet.",
    "rating": 0,
    "reviews": 16
  },
  {
    "name": "Exclusive Hair",
    "slug": "/exclusive-hair/",
    "time": "12.00",
    "duration": "45 min",
    "price": 1100,
    "currency": "kr",
    "address": "Vasagatan 30",
    "city": "Stockholm",
    "zip": "113 26",
    "phone": "08 - 20 13 46",
    "www": "www.exclusive-hair.se",
    "openingHours": "22.00",
    "description": "Lorem ipsum dolor sit amet, vulputate nunc. Auctor viverra. Ridiculus feugiat nunc porttitor volut pat, acu quis torquent iaculis ultricies massa, duis nun quis que amet.",
    "rating": 5,
    "reviews": 105
  },
  {
    "name": "Fancy Pany Hair",
    "slug": "/fancy-pancy-hair/",
    "time": "12.00",
    "duration": "120 min",
    "price": 1250,
    "currency": "kr",
    "address": "Stureplan 6",
    "city": "Stockholm",
    "zip": "163 29",
    "phone": "08 - 10 63 56",
    "www": "www.fancypancy.se",
    "openingHours": "23.00",
    "description": "Lorem ipsum dolor sit amet, vulputate nunc. Auctor viverra. Ridiculus feugiat nunc porttitor volut pat, acu quis torquent iaculis ultricies massa, duis nun quis que amet.",
    "rating": 5,
    "reviews": 102
  }
]
